[
    {
        "id": "490011760D",
        "stop_letter": "D",
        "name": "Royal Free Hospital",
        "lat": 51.553947,
        "lon": -0.165511,
        "lines": [
            "1",
            "46",
            "c11"
        ],
        "modes": [
            "bus"
        ],
        "parent_id": "490G000732",
        "top_most_parent_id": "490G000732",
        "station_id": "490G000732"
    },
    {
        "id": "490011714E",
        "stop_letter": "E",
        "name": "Rosslyn Hill",
        "lat": 51.553441,
        "lon": -0.168286,
        "lines": [
            "1",
            "46",
            "c11"
        ],
        "modes": [
            "bus"
        ],
        "parent_id": "490G00011714",
        "top_most_parent_id": "490G00011714",
        "station_id": "490G00011714"
    },
    {
        "id": "490015255F",
        "stop_letter": "F",
        "name": "Haverstock Hill / Pond Street",
        "lat": 51.552266,
        "lon": -0.167295,
        "lines": [
            "1",
            "268",
            "c11",
            "n5"
        ],
        "modes": [
            "bus"
        ],
        "parent_id": "490G00015255",
        "top_most_parent_id": "490G00015255",
        "station_id": "490G00015255"
    },
    {
        "id": "490000020L",
        "stop_letter": "L",
        "name": "Belsize Park Station",
        "lat": 51.550749,
        "lon": -0.165192,
        "lines": [
            "1",
            "c11",
            "n5"
        ],
        "modes": [
            "bus"
        ],
        "parent_id": "490G00020L",
        "top_most_parent_id": "940GZZLUBZP",
        "station_id": "490G00020L"
    },
    {
        "id": "490006180S",
        "stop_letter": "M",
        "name": "Downside Crescent",
        "lat": 51.550027,
        "lon": -0.163866,
        "lines": [
            "1",
            "c11",
            "n5"
        ],
        "modes": [
            "bus"
        ],
        "parent_id": "490G00006180",
        "top_most_parent_id": "490G00006180",
        "station_id": "490G00006180"
    },
    {
        "id": "490013939S",
        "stop_letter": "N",
        "name": "Upper Park Road",
        "lat": 51.548753,
        "lon": -0.161725,
        "lines": [
            "1",
            "c11",
            "n5"
        ],
        "modes": [
            "bus"
        ],
        "parent_id": "490G00013939",
        "top_most_parent_id": "490G00013939",
        "station_id": "490G00013939"
    },
    {
        "id": "490012664S",
        "stop_letter": "P",
        "name": "Haverstock Hill / Steele's Village",
        "lat": 51.546443,
        "lon": -0.157203,
        "lines": [
            "1",
            "n5"
        ],
        "modes": [
            "bus"
        ],
        "parent_id": "490G00012668",
        "top_most_parent_id": "490G00012668",
        "station_id": "490G00012668"
    },
    {
        "id": "490000043CD",
        "stop_letter": "CD",
        "name": "Chalk Farm Station",
        "lat": 51.544644,
        "lon": -0.153742,
        "lines": [
            "1",
            "393",
            "n5"
        ],
        "modes": [
            "bus"
        ],
        "parent_id": "490G00043CD",
        "top_most_parent_id": "940GZZLUCFM",
        "station_id": "490G00043CD"
    },
    {
        "id": "490004963CE",
        "stop_letter": "CE",
        "name": "Chalk Farm Road / Morrisons",
        "lat": 51.543115,
        "lon": -0.149737,
        "lines": [
            "1",
            "27",
            "31",
            "393",
            "n27",
            "n28",
            "n31",
            "n5"
        ],
        "modes": [
            "bus"
        ],
        "parent_id": "490G00004964",
        "top_most_parent_id": "490G00004964",
        "station_id": "490G00004964"
    },
    {
        "id": "490007927M",
        "stop_letter": "M",
        "name": "Hawley Road",
        "lat": 51.542882,
        "lon": -0.143545,
        "lines": [
            "1",
            "24",
            "27",
            "31",
            "n27",
            "n28",
            "n31",
            "n5"
        ],
        "modes": [
            "bus"
        ],
        "parent_id": "490G00007927",
        "top_most_parent_id": "490G00007927",
        "station_id": "490G00007927"
    },
    {
        "id": "490004713D",
        "stop_letter": "D",
        "name": "Camden Gardens",
        "lat": 51.54197,
        "lon": -0.14103,
        "lines": [
            "1",
            "134",
            "214",
            "24",
            "27",
            "31",
            "46",
            "88",
            "n20",
            "n27",
            "n28",
            "n31",
            "n5"
        ],
        "modes": [
            "bus"
        ],
        "parent_id": "490G00004713",
        "top_most_parent_id": "490G00004713",
        "station_id": "490G00004713"
    },
    {
        "id": "490000036R",
        "stop_letter": "R",
        "name": "Camden Town Station / Camden Street",
        "lat": 51.540003,
        "lon": -0.140634,
        "lines": [
            "1",
            "214",
            "253",
            "274",
            "88"
        ],
        "modes": [
            "bus"
        ],
        "parent_id": "490G00019167",
        "top_most_parent_id": "490G00019167",
        "station_id": "490G00019167"
    },
    {
        "id": "490015531T",
        "stop_letter": "T",
        "name": "Camden Town Station  / Bayham Street",
        "lat": 51.538668,
        "lon": -0.140919,
        "lines": [
            "1",
            "214",
            "253",
            "274",
            "88"
        ],
        "modes": [
            "bus"
        ],
        "parent_id": "490G00002330",
        "top_most_parent_id": "490G00002330",
        "station_id": "490G00002330"
    },
    {
        "id": "490011168S1",
        "stop_letter": "W",
        "name": "Pratt Street",
        "lat": 51.536961,
        "lon": -0.13933,
        "lines": [
            "1",
            "214",
            "253",
            "n20",
            "n253",
            "n5"
        ],
        "modes": [
            "bus"
        ],
        "parent_id": "490G00011168",
        "top_most_parent_id": "490G00011168",
        "station_id": "490G00011168"
    },
    {
        "id": "490000152G",
        "stop_letter": "G",
        "name": "Mornington Cres Stn / Camden Tn Library",
        "lat": 51.534136,
        "lon": -0.138105,
        "lines": [
            "1",
            "253",
            "n20",
            "n253",
            "n5"
        ],
        "modes": [
            "bus"
        ],
        "parent_id": "490G00152G",
        "top_most_parent_id": "940GZZLUMTC",
        "station_id": "490G00152G"
    },
    {
        "id": "490003174S",
        "stop_letter": "S",
        "name": "Aldenham Street",
        "lat": 51.531995,
        "lon": -0.135755,
        "lines": [
            "1",
            "253",
            "n20",
            "n253",
            "n5"
        ],
        "modes": [
            "bus"
        ],
        "parent_id": "490G00003174",
        "top_most_parent_id": "490G00003174",
        "station_id": "490G00003174"
    },
    {
        "id": "490000077B",
        "stop_letter": "B",
        "name": "Euston Station",
        "lat": 51.52861,
        "lon": -0.132131,
        "lines": [
            "1",
            "253",
            "n20",
            "n253",
            "n5"
        ],
        "modes": [
            "bus"
        ],
        "parent_id": "490G00077B",
        "top_most_parent_id": "HUBEUS",
        "station_id": "490G00077B"
    },
    {
        "id": "490012867M",
        "stop_letter": "M",
        "name": "Upper Woburn Place",
        "lat": 51.526815,
        "lon": -0.130114,
        "lines": [
            "1",
            "68",
            "91",
            "n91"
        ],
        "modes": [
            "bus"
        ],
        "parent_id": "490G00012867",
        "top_most_parent_id": "HUBEUS",
        "station_id": "490G00012867"
    },
    {
        "id": "490013170S",
        "stop_letter": "N",
        "name": "Tavistock Square",
        "lat": 51.524903,
        "lon": -0.128059,
        "lines": [
            "1",
            "68",
            "91",
            "n91"
        ],
        "modes": [
            "bus"
        ],
        "parent_id": "490G00013170",
        "top_most_parent_id": "490G00013170",
        "station_id": "490G00013170"
    },
    {
        "id": "490000200J",
        "stop_letter": "J",
        "name": "Russell Square",
        "lat": 51.523355,
        "lon": -0.126277,
        "lines": [
            "1",
            "68",
            "91",
            "n91"
        ],
        "modes": [
            "bus"
        ],
        "parent_id": "490G00200H",
        "top_most_parent_id": "940GZZLURSQ",
        "station_id": "490G00200H"
    },
    {
        "id": "490005624S",
        "stop_letter": "B",
        "name": "Southampton Row",
        "lat": 51.521053,
        "lon": -0.123489,
        "lines": [
            "1",
            "68",
            "91",
            "n91",
            "sl6"
        ],
        "modes": [
            "bus"
        ],
        "parent_id": "490G00005624",
        "top_most_parent_id": "490G00005624",
        "station_id": "490G00005624"
    },
    {
        "id": "490013477A",
        "stop_letter": "X",
        "name": "Southampton Row / Theobald's Road",
        "lat": 51.518507,
        "lon": -0.120624,
        "lines": [
            "1",
            "68",
            "91",
            "n91",
            "sl6"
        ],
        "modes": [
            "bus"
        ],
        "parent_id": "490G00013478",
        "top_most_parent_id": "490G00013478",
        "station_id": "490G00013478"
    },
    {
        "id": "490000112M",
        "stop_letter": "M",
        "name": "Kingsway / Holborn Station",
        "lat": 51.51674,
        "lon": -0.11976,
        "lines": [
            "1",
            "188",
            "243",
            "59",
            "68",
            "91",
            "n1",
            "n171",
            "n68",
            "n91",
            "sl6"
        ],
        "modes": [
            "bus"
        ],
        "parent_id": "490G00000350",
        "top_most_parent_id": "490G00000350",
        "station_id": "490G00000350"
    },
    {
        "id": "490019703Z",
        "stop_letter": "S",
        "name": "Aldwych / Drury Lane",
        "lat": 51.512264,
        "lon": -0.118806,
        "lines": [
            "1",
            "172",
            "188",
            "243",
            "341",
            "59",
            "68",
            "n1",
            "n171",
            "n68",
            "sl6"
        ],
        "modes": [
            "bus"
        ],
        "parent_id": "490G00019703",
        "top_most_parent_id": "490G00019703",
        "station_id": "490G00019703"
    },
    {
        "id": "490014271N",
        "stop_letter": "N",
        "name": "Waterloo Bridge / South Bank",
        "lat": 51.5065,
        "lon": -0.114922,
        "lines": [
            "1",
            "139",
            "172",
            "176",
            "188",
            "243",
            "341",
            "59",
            "68",
            "n1",
            "n171",
            "n343",
            "n68",
            "sl6"
        ],
        "modes": [
            "bus"
        ],
        "parent_id": "490G000819",
        "top_most_parent_id": "490G000819",
        "station_id": "490G000819"
    },
    {
        "id": "490000254E",
        "stop_letter": "E",
        "name": "Waterloo Station   / Waterloo Road",
        "lat": 51.503512,
        "lon": -0.111414,
        "lines": [
            "1",
            "139",
            "188",
            "341",
            "c10",
            "n1"
        ],
        "modes": [
            "bus"
        ],
        "parent_id": "490G000401",
        "top_most_parent_id": "HUBWAT",
        "station_id": "490G000401"
    },
    {
        "id": "490013485S1",
        "stop_letter": "S",
        "name": "The Old Vic",
        "lat": 51.501338,
        "lon": -0.108752,
        "lines": [
            "1",
            "172",
            "176",
            "188",
            "68",
            "c10",
            "n1",
            "n171",
            "n68"
        ],
        "modes": [
            "bus"
        ],
        "parent_id": "490G00013485",
        "top_most_parent_id": "490G00013485",
        "station_id": "490G00013485"
    },
    {
        "id": "490012693S2",
        "stop_letter": "T",
        "name": "St George's Circus",
        "lat": 51.499158,
        "lon": -0.106278,
        "lines": [
            "1",
            "172",
            "176",
            "188",
            "68",
            "c10",
            "n1",
            "n171",
            "n68"
        ],
        "modes": [
            "bus"
        ],
        "parent_id": "490G00012693",
        "top_most_parent_id": "490G00012693",
        "station_id": "490G00012693"
    },
    {
        "id": "490009281E",
        "stop_letter": "E",
        "name": "Elephant & Castle / London Road",
        "lat": 51.496102,
        "lon": -0.101333,
        "lines": [
            "1",
            "172",
            "188",
            "363",
            "453",
            "53",
            "63",
            "n1",
            "n53",
            "n63"
        ],
        "modes": [
            "bus"
        ],
        "parent_id": "490G000642",
        "top_most_parent_id": "490G000642",
        "station_id": "490G000642"
    },
    {
        "id": "490000073K",
        "stop_letter": "K",
        "name": "Elephant & Castle / New Kent Road",
        "lat": 51.495076,
        "lon": -0.099071,
        "lines": [
            "1",
            "188",
            "n1"
        ],
        "modes": [
            "bus"
        ],
        "parent_id": "490G000645",
        "top_most_parent_id": "HUBEPH",
        "station_id": "490G000645"
    },
    {
        "id": "490011632BA",
        "stop_letter": "BA",
        "name": "Rodney Place",
        "lat": 51.494218,
        "lon": -0.094439,
        "lines": [
            "1",
            "172",
            "188",
            "363",
            "415",
            "453",
            "53",
            "63",
            "n1",
            "n53",
            "n63"
        ],
        "modes": [
            "bus"
        ],
        "parent_id": "490G00011632",
        "top_most_parent_id": "490G00011632",
        "station_id": "490G00011632"
    },
    {
        "id": "490003658BC",
        "stop_letter": "BC",
        "name": "Bricklayer's Arms / New Kent Road",
        "lat": 51.494414,
        "lon": -0.087689,
        "lines": [
            "1",
            "188",
            "n1"
        ],
        "modes": [
            "bus"
        ],
        "parent_id": "490G00003658",
        "top_most_parent_id": "490G00003658",
        "station_id": "490G00003658"
    },
    {
        "id": "490004315BH",
        "stop_letter": "BH",
        "name": "Bricklayer's Arms / Tower Bridge Road",
        "lat": 51.495631,
        "lon": -0.08346,
        "lines": [
            "1",
            "188",
            "42",
            "n1"
        ],
        "modes": [
            "bus"
        ],
        "parent_id": "490G00019012",
        "top_most_parent_id": "490G00019012",
        "station_id": "490G00019012"
    },
    {
        "id": "490007533E",
        "stop_letter": "N",
        "name": "Grigg's Place",
        "lat": 51.496431,
        "lon": -0.080675,
        "lines": [
            "1",
            "78",
            "n1"
        ],
        "modes": [
            "bus"
        ],
        "parent_id": "490G00007533",
        "top_most_parent_id": "490G00007533",
        "station_id": "490G00007533"
    },
    {
        "id": "490006792E",
        "stop_letter": "P",
        "name": "Fendall Street",
        "lat": 51.495681,
        "lon": -0.078243,
        "lines": [
            "1",
            "78",
            "n1"
        ],
        "modes": [
            "bus"
        ],
        "parent_id": "490G00006792",
        "top_most_parent_id": "490G00006792",
        "station_id": "490G00006792"
    },
    {
        "id": "490012367E",
        "stop_letter": "Q",
        "name": "Spa Road",
        "lat": 51.49482,
        "lon": -0.07619,
        "lines": [
            "1",
            "78",
            "n1"
        ],
        "modes": [
            "bus"
        ],
        "parent_id": "490G00012367",
        "top_most_parent_id": "490G00012367",
        "station_id": "490G00012367"
    },
    {
        "id": "490003275E",
        "stop_letter": "R",
        "name": "Alscot Road",
        "lat": 51.493684,
        "lon": -0.074365,
        "lines": [
            "1",
            "78",
            "n1"
        ],
        "modes": [
            "bus"
        ],
        "parent_id": "490G00003275",
        "top_most_parent_id": "490G00003275",
        "station_id": "490G00003275"
    },
    {
        "id": "490003533E",
        "stop_letter": null,
        "name": "Harris Academy",
        "lat": 51.492803,
        "lon": -0.071118,
        "lines": [
            "1",
            "n1"
        ],
        "modes": [
            "bus"
        ],
        "parent_id": "490G00003533",
        "top_most_parent_id": "490G00003533",
        "station_id": "490G00003533"
    },
    {
        "id": "490012353E",
        "stop_letter": "PA",
        "name": "Southwark Park Road / St James's Road",
        "lat": 51.492371,
        "lon": -0.065662,
        "lines": [
            "1",
            "n1"
        ],
        "modes": [
            "bus"
        ],
        "parent_id": "490G00012353",
        "top_most_parent_id": "490G00012353",
        "station_id": "490G00012353"
    },
    {
        "id": "490003311E",
        "stop_letter": "PB",
        "name": "Anchor Street",
        "lat": 51.492166,
        "lon": -0.061392,
        "lines": [
            "1",
            "381",
            "n1",
            "n381",
            "p12"
        ],
        "modes": [
            "bus"
        ],
        "parent_id": "490G00003311",
        "top_most_parent_id": "490G00003311",
        "station_id": "490G00003311"
    },
    {
        "id": "490009482S",
        "stop_letter": "GS",
        "name": "Lynton Road",
        "lat": 51.490568,
        "lon": -0.059904,
        "lines": [
            "1",
            "381",
            "n1",
            "n381"
        ],
        "modes": [
            "bus"
        ],
        "parent_id": "490G00009482",
        "top_most_parent_id": "490G00009482",
        "station_id": "490G00009482"
    },
    {
        "id": "490007086B",
        "stop_letter": "GT",
        "name": "Galleywall Road / South Bermondsey Stn",
        "lat": 51.489044,
        "lon": -0.058038,
        "lines": [
            "1",
            "381",
            "n1",
            "n381"
        ],
        "modes": [
            "bus"
        ],
        "parent_id": "490G000529",
        "top_most_parent_id": "490G000529",
        "station_id": "490G000529"
    },
    {
        "id": "490003716E",
        "stop_letter": "RL",
        "name": "Beamish House",
        "lat": 51.48961,
        "lon": -0.056401,
        "lines": [
            "1",
            "381",
            "n1",
            "n381"
        ],
        "modes": [
            "bus"
        ],
        "parent_id": "490G000403",
        "top_most_parent_id": "490G000403",
        "station_id": "490G000403"
    },
    {
        "id": "490005603E",
        "stop_letter": "RM",
        "name": "Corbetts Lane",
        "lat": 51.490942,
        "lon": -0.053175,
        "lines": [
            "1",
            "381",
            "n1",
            "n381"
        ],
        "modes": [
            "bus"
        ],
        "parent_id": "490G00005603",
        "top_most_parent_id": "490G00005603",
        "station_id": "490G00005603"
    },
    {
        "id": "490014228E",
        "stop_letter": "RN",
        "name": "Warndon Street",
        "lat": 51.491123,
        "lon": -0.050531,
        "lines": [
            "1",
            "381",
            "n1",
            "n381"
        ],
        "modes": [
            "bus"
        ],
        "parent_id": "490G00011722",
        "top_most_parent_id": "490G00011722",
        "station_id": "490G00011722"
    },
    {
        "id": "490000229O",
        "stop_letter": "S",
        "name": "Surrey Quays Station",
        "lat": 51.49295,
        "lon": -0.047918,
        "lines": [
            "1",
            "188",
            "199",
            "225",
            "381",
            "n199",
            "n381"
        ],
        "modes": [
            "bus"
        ],
        "parent_id": "490G00229O",
        "top_most_parent_id": "910GSURREYQ",
        "station_id": "490G00229O"
    },
    {
        "id": "490011723P",
        "stop_letter": "P",
        "name": "Rotherhithe Police Station",
        "lat": 51.495462,
        "lon": -0.051355,
        "lines": [
            "1",
            "199",
            "225",
            "381",
            "n199",
            "n381"
        ],
        "modes": [
            "bus"
        ],
        "parent_id": "490G00011723",
        "top_most_parent_id": "490G00011723",
        "station_id": "490G00011723"
    },
    {
        "id": "490004733D",
        "stop_letter": "D",
        "name": "Canada Water Bus Station",
        "lat": 51.498145,
        "lon": -0.049944,
        "lines": [
            "1",
            "199",
            "225",
            "c10",
            "p12"
        ],
        "modes": [
            "bus"
        ],
        "parent_id": "490G000438",
        "top_most_parent_id": "HUBZCW",
        "station_id": "490G000438"
    },
    {
        "id": "490004733C",
        "stop_letter": "C",
        "name": "Canada Water Bus Station",
        "lat": 51.497775,
        "lon": -0.049844,
        "lines": [
            "1",
            "381",
            "p12"
        ],
        "modes": [
            "bus"
        ],
        "parent_id": "490G000438",
        "top_most_parent_id": "HUBZCW",
        "station_id": "490G000438"
    },
    {
        "id": "490011723E",
        "stop_letter": "E",
        "name": "Rotherhithe Police Station",
        "lat": 51.494944,
        "lon": -0.050484,
        "lines": [
            "1",
            "108",
            "199",
            "225",
            "381",
            "n199",
            "n381",
            "p12"
        ],
        "modes": [
            "bus"
        ],
        "parent_id": "490G00011723",
        "top_most_parent_id": "490G00011723",
        "station_id": "490G00011723"
    },
    {
        "id": "490013042J",
        "stop_letter": "J",
        "name": "Surrey Quays Shopping Centre",
        "lat": 51.49401,
        "lon": -0.046259,
        "lines": [
            "1",
            "188",
            "n1"
        ],
        "modes": [
            "bus"
        ],
        "parent_id": "490G000775",
        "top_most_parent_id": "490G000775",
        "station_id": "490G000775"
    },
    {
        "id": "490000229L",
        "stop_letter": "L",
        "name": "Surrey Quays Station",
        "lat": 51.493421,
        "lon": -0.046011,
        "lines": [
            "1",
            "188",
            "199",
            "225",
            "381",
            "n1",
            "n199",
            "n381"
        ],
        "modes": [
            "bus"
        ],
        "parent_id": "490G00229S",
        "top_most_parent_id": "910GSURREYQ",
        "station_id": "490G00229S"
    },
    {
        "id": "490011722Q",
        "stop_letter": "Q",
        "name": "Warndon Street",
        "lat": 51.491062,
        "lon": -0.049079,
        "lines": [
            "1",
            "381",
            "n1",
            "n381"
        ],
        "modes": [
            "bus"
        ],
        "parent_id": "490G00011722",
        "top_most_parent_id": "490G00011722",
        "station_id": "490G00011722"
    },
    {
        "id": "490005603W",
        "stop_letter": "RE",
        "name": "Corbetts Lane",
        "lat": 51.490641,
        "lon": -0.054038,
        "lines": [
            "1",
            "381",
            "n1",
            "n381"
        ],
        "modes": [
            "bus"
        ],
        "parent_id": "490G00005603",
        "top_most_parent_id": "490G00005603",
        "station_id": "490G00005603"
    },
    {
        "id": "490009482N",
        "stop_letter": "GP",
        "name": "Lynton Road",
        "lat": 51.490197,
        "lon": -0.059776,
        "lines": [
            "1",
            "381",
            "n1",
            "n381"
        ],
        "modes": [
            "bus"
        ],
        "parent_id": "490G00009482",
        "top_most_parent_id": "490G00009482",
        "station_id": "490G00009482"
    },
    {
        "id": "490003311N",
        "stop_letter": "GQ",
        "name": "Anchor Street",
        "lat": 51.491578,
        "lon": -0.060625,
        "lines": [
            "1",
            "381",
            "n1",
            "n381"
        ],
        "modes": [
            "bus"
        ],
        "parent_id": "490G00003311",
        "top_most_parent_id": "490G00003311",
        "station_id": "490G00003311"
    },
    {
        "id": "490012353W",
        "stop_letter": "PG",
        "name": "Southwark Park Road / St James's Road",
        "lat": 51.49225,
        "lon": -0.064874,
        "lines": [
            "1",
            "381",
            "n1",
            "n381",
            "p12"
        ],
        "modes": [
            "bus"
        ],
        "parent_id": "490G00012353",
        "top_most_parent_id": "490G00012353",
        "station_id": "490G00012353"
    },
    {
        "id": "490011538W",
        "stop_letter": "PH",
        "name": "Reverdy Road",
        "lat": 51.492687,
        "lon": -0.069523,
        "lines": [
            "1",
            "n1"
        ],
        "modes": [
            "bus"
        ],
        "parent_id": "490G00011538",
        "top_most_parent_id": "490G00011538",
        "station_id": "490G00011538"
    },
    {
        "id": "490003275W",
        "stop_letter": "U",
        "name": "Alscot Road",
        "lat": 51.493622,
        "lon": -0.07444,
        "lines": [
            "1",
            "78",
            "n1"
        ],
        "modes": [
            "bus"
        ],
        "parent_id": "490G00003275",
        "top_most_parent_id": "490G00003275",
        "station_id": "490G00003275"
    },
    {
        "id": "490012367W",
        "stop_letter": "V",
        "name": "Spa Road",
        "lat": 51.495374,
        "lon": -0.077665,
        "lines": [
            "1",
            "78",
            "n1"
        ],
        "modes": [
            "bus"
        ],
        "parent_id": "490G00012367",
        "top_most_parent_id": "490G00012367",
        "station_id": "490G00012367"
    },
    {
        "id": "490007362S",
        "stop_letter": "J",
        "name": "Grange Road / Caledonian Market",
        "lat": 51.496403,
        "lon": -0.082275,
        "lines": [
            "1",
            "188",
            "n1"
        ],
        "modes": [
            "bus"
        ],
        "parent_id": "490G00007362",
        "top_most_parent_id": "490G00007362",
        "station_id": "490G00007362"
    },
    {
        "id": "490015272BJ",
        "stop_letter": "BJ",
        "name": "Bricklayer's Arms / Tower Bridge Road",
        "lat": 51.495154,
        "lon": -0.083955,
        "lines": [
            "1",
            "188",
            "42",
            "n1"
        ],
        "modes": [
            "bus"
        ],
        "parent_id": "490G00019012",
        "top_most_parent_id": "490G00019012",
        "station_id": "490G00019012"
    },
    {
        "id": "490003658BS",
        "stop_letter": "BS",
        "name": "Bricklayer's Arms / New Kent Road",
        "lat": 51.494033,
        "lon": -0.09024,
        "lines": [
            "1",
            "172",
            "188",
            "363",
            "415",
            "453",
            "53",
            "63",
            "n1",
            "n53",
            "n63"
        ],
        "modes": [
            "bus"
        ],
        "parent_id": "490G00003658",
        "top_most_parent_id": "490G00003658",
        "station_id": "490G00003658"
    },
    {
        "id": "490011632BT",
        "stop_letter": "BT",
        "name": "Rodney Place",
        "lat": 51.494168,
        "lon": -0.094672,
        "lines": [
            "1",
            "172",
            "188",
            "363",
            "415",
            "453",
            "53",
            "63",
            "n1",
            "n53",
            "n63"
        ],
        "modes": [
            "bus"
        ],
        "parent_id": "490G00011632",
        "top_most_parent_id": "490G00011632",
        "station_id": "490G00011632"
    },
    {
        "id": "490000073N",
        "stop_letter": "N",
        "name": "Elephant & Castle / New Kent Road",
        "lat": 51.49498,
        "lon": -0.099233,
        "lines": [
            "1",
            "172",
            "188",
            "363",
            "415",
            "63",
            "n1",
            "n63"
        ],
        "modes": [
            "bus"
        ],
        "parent_id": "490G000645",
        "top_most_parent_id": "HUBEPH",
        "station_id": "490G000645"
    },
    {
        "id": "490009281A",
        "stop_letter": "A",
        "name": "Elephant & Castle / London Road",
        "lat": 51.496135,
        "lon": -0.101706,
        "lines": [
            "1",
            "172",
            "176",
            "188",
            "40",
            "63",
            "68",
            "n1",
            "n171",
            "n63",
            "n68",
            "n89"
        ],
        "modes": [
            "bus"
        ],
        "parent_id": "490G000642",
        "top_most_parent_id": "490G000642",
        "station_id": "490G000642"
    },
    {
        "id": "490012693N1",
        "stop_letter": "P",
        "name": "St George's Circus",
        "lat": 51.499668,
        "lon": -0.107236,
        "lines": [
            "1",
            "172",
            "176",
            "188",
            "68",
            "c10",
            "n1",
            "n171",
            "n68"
        ],
        "modes": [
            "bus"
        ],
        "parent_id": "490G00012693",
        "top_most_parent_id": "490G00012693",
        "station_id": "490G00012693"
    },
    {
        "id": "490013485N",
        "stop_letter": "Q",
        "name": "The Old Vic",
        "lat": 51.50129,
        "lon": -0.109085,
        "lines": [
            "1",
            "172",
            "176",
            "188",
            "68",
            "c10",
            "n1",
            "n171",
            "n68"
        ],
        "modes": [
            "bus"
        ],
        "parent_id": "490G00013485",
        "top_most_parent_id": "490G00013485",
        "station_id": "490G00013485"
    },
    {
        "id": "490000254K",
        "stop_letter": "K",
        "name": "Waterloo Station / Tenison Way",
        "lat": 51.504359,
        "lon": -0.113742,
        "lines": [
            "1",
            "188",
            "68",
            "n1",
            "n171",
            "n68",
            "sl6"
        ],
        "modes": [
            "bus"
        ],
        "parent_id": "490G000402",
        "top_most_parent_id": "HUBWAT",
        "station_id": "490G000402"
    },
    {
        "id": "490014270P",
        "stop_letter": "P",
        "name": "Waterloo Bridge / South Bank",
        "lat": 51.506259,
        "lon": -0.115004,
        "lines": [
            "1",
            "139",
            "172",
            "176",
            "188",
            "243",
            "341",
            "59",
            "68",
            "n1",
            "n171",
            "n343",
            "n68",
            "sl6"
        ],
        "modes": [
            "bus"
        ],
        "parent_id": "490G000819",
        "top_most_parent_id": "490G000819",
        "station_id": "490G000819"
    },
    {
        "id": "490008932T",
        "stop_letter": "T",
        "name": "Lancaster Place",
        "lat": 51.510446,
        "lon": -0.118722,
        "lines": [
            "1",
            "139",
            "172",
            "176",
            "188",
            "243",
            "341",
            "59",
            "68",
            "n1",
            "n171",
            "n343",
            "n68",
            "sl6"
        ],
        "modes": [
            "bus"
        ],
        "parent_id": "490G00008932",
        "top_most_parent_id": "490G00008932",
        "station_id": "490G00008932"
    },
    {
        "id": "490003191F",
        "stop_letter": "F",
        "name": "Aldwych / Kingsway",
        "lat": 51.513141,
        "lon": -0.117948,
        "lines": [
            "1",
            "188",
            "68",
            "91",
            "n1",
            "n171",
            "n68",
            "n91",
            "sl6"
        ],
        "modes": [
            "bus"
        ],
        "parent_id": "490G00003195",
        "top_most_parent_id": "490G00003195",
        "station_id": "490G00003195"
    },
    {
        "id": "490000112N",
        "stop_letter": "N",
        "name": "Holborn Station",
        "lat": 51.516872,
        "lon": -0.120144,
        "lines": [
            "1",
            "68",
            "91",
            "n91",
            "sl6"
        ],
        "modes": [
            "bus"
        ],
        "parent_id": "490G00112L",
        "top_most_parent_id": "940GZZLUHBN",
        "station_id": "490G00112L"
    },
    {
        "id": "490013477Y",
        "stop_letter": "Y",
        "name": "Southampton Row / Theobald's Road",
        "lat": 51.519526,
        "lon": -0.121908,
        "lines": [
            "1",
            "68",
            "91",
            "n91",
            "sl6"
        ],
        "modes": [
            "bus"
        ],
        "parent_id": "490G00013478",
        "top_most_parent_id": "490G00013478",
        "station_id": "490G00013478"
    },
    {
        "id": "490000200H",
        "stop_letter": "H",
        "name": "Russell Square Station",
        "lat": 51.523212,
        "lon": -0.126384,
        "lines": [
            "1",
            "68",
            "91",
            "n91"
        ],
        "modes": [
            "bus"
        ],
        "parent_id": "490G00200H",
        "top_most_parent_id": "940GZZLURSQ",
        "station_id": "490G00200H"
    },
    {
        "id": "490013170N",
        "stop_letter": "K",
        "name": "Tavistock Square",
        "lat": 51.524903,
        "lon": -0.128044,
        "lines": [
            "1",
            "68",
            "91",
            "n91"
        ],
        "modes": [
            "bus"
        ],
        "parent_id": "490G00013170",
        "top_most_parent_id": "490G00013170",
        "station_id": "490G00013170"
    },
    {
        "id": "490012867L",
        "stop_letter": "L",
        "name": "Upper Woburn Place / Euston Road",
        "lat": 51.527158,
        "lon": -0.130777,
        "lines": [
            "1",
            "68",
            "91",
            "n91"
        ],
        "modes": [
            "bus"
        ],
        "parent_id": "490G00012867",
        "top_most_parent_id": "HUBEUS",
        "station_id": "490G00012867"
    },
    {
        "id": "490000077A",
        "stop_letter": "A",
        "name": "Euston Station  / Eversholt Street",
        "lat": 51.52918,
        "lon": -0.132944,
        "lines": [
            "1",
            "253",
            "n20",
            "n253",
            "n5"
        ],
        "modes": [
            "bus"
        ],
        "parent_id": "490G000651",
        "top_most_parent_id": "HUBEUS",
        "station_id": "490G000651"
    },
    {
        "id": "490003174N",
        "stop_letter": "T",
        "name": "Aldenham Street",
        "lat": 51.531577,
        "lon": -0.135542,
        "lines": [
            "1",
            "253",
            "n20",
            "n253",
            "n5"
        ],
        "modes": [
            "bus"
        ],
        "parent_id": "490G00003174",
        "top_most_parent_id": "490G00003174",
        "station_id": "490G00003174"
    },
    {
        "id": "490000152F",
        "stop_letter": "F",
        "name": "Mornington Cres Stn / Camden Tn Library",
        "lat": 51.534158,
        "lon": -0.138363,
        "lines": [
            "1",
            "253",
            "n253"
        ],
        "modes": [
            "bus"
        ],
        "parent_id": "490G00152G",
        "top_most_parent_id": "940GZZLUMTC",
        "station_id": "490G00152G"
    },
    {
        "id": "490004714J",
        "stop_letter": "J",
        "name": "Camden High Street",
        "lat": 51.536513,
        "lon": -0.140574,
        "lines": [
            "1",
            "24",
            "253",
            "27",
            "29",
            "n253",
            "n27",
            "n279",
            "n28",
            "n29",
            "n31",
            "n5"
        ],
        "modes": [
            "bus"
        ],
        "parent_id": "490G000437",
        "top_most_parent_id": "490G000437",
        "station_id": "490G000437"
    },
    {
        "id": "490015041X",
        "stop_letter": "X",
        "name": "Camden Town Station",
        "lat": 51.53843,
        "lon": -0.142342,
        "lines": [
            "1",
            "24",
            "27",
            "31",
            "n27",
            "n28",
            "n31",
            "n5"
        ],
        "modes": [
            "bus"
        ],
        "parent_id": "490G00036N",
        "top_most_parent_id": "940GZZLUCTN",
        "station_id": "490G00036N"
    },
    {
        "id": "490007876O",
        "stop_letter": "CQ",
        "name": "Hartland Road / Camden Market",
        "lat": 51.542288,
        "lon": -0.146929,
        "lines": [
            "1",
            "24",
            "27",
            "31",
            "n27",
            "n28",
            "n31",
            "n5"
        ],
        "modes": [
            "bus"
        ],
        "parent_id": "490G00007876",
        "top_most_parent_id": "490G00007876",
        "station_id": "490G00007876"
    },
    {
        "id": "490013538CF",
        "stop_letter": "CF",
        "name": "The Roundhouse",
        "lat": 51.543327,
        "lon": -0.151228,
        "lines": [
            "1",
            "31",
            "393",
            "n28",
            "n31",
            "n5"
        ],
        "modes": [
            "bus"
        ],
        "parent_id": "490G00013538",
        "top_most_parent_id": "490G00013538",
        "station_id": "490G00013538"
    },
    {
        "id": "490000043CC",
        "stop_letter": "CC",
        "name": "Chalk Farm Station",
        "lat": 51.544368,
        "lon": -0.153926,
        "lines": [
            "1",
            "393",
            "n5"
        ],
        "modes": [
            "bus"
        ],
        "parent_id": "490G00043CD",
        "top_most_parent_id": "940GZZLUCFM",
        "station_id": "490G00043CD"
    },
    {
        "id": "490012664N",
        "stop_letter": "Q",
        "name": "Steele's Road / Steele's Village",
        "lat": 51.546516,
        "lon": -0.157849,
        "lines": [
            "1",
            "n5"
        ],
        "modes": [
            "bus"
        ],
        "parent_id": "490G00012664",
        "top_most_parent_id": "490G00012664",
        "station_id": "490G00012664"
    },
    {
        "id": "490013939N",
        "stop_letter": "W",
        "name": "Upper Park Road",
        "lat": 51.549219,
        "lon": -0.162802,
        "lines": [
            "1",
            "c11",
            "n5"
        ],
        "modes": [
            "bus"
        ],
        "parent_id": "490G00013939",
        "top_most_parent_id": "490G00013939",
        "station_id": "490G00013939"
    },
    {
        "id": "490000020K",
        "stop_letter": "K",
        "name": "Belsize Park Station",
        "lat": 51.550697,
        "lon": -0.165281,
        "lines": [
            "1",
            "c11",
            "n5"
        ],
        "modes": [
            "bus"
        ],
        "parent_id": "490G00020L",
        "top_most_parent_id": "940GZZLUBZP",
        "station_id": "490G00020L"
    },
    {
        "id": "490015255G",
        "stop_letter": "G",
        "name": "Rosslyn Hill",
        "lat": 51.552779,
        "lon": -0.1685,
        "lines": [
            "1",
            "268",
            "c11",
            "n5"
        ],
        "modes": [
            "bus"
        ],
        "parent_id": "490G00011714",
        "top_most_parent_id": "490G00011714",
        "station_id": "490G00011714"
    },
    {
        "id": "490011760C",
        "stop_letter": "C",
        "name": "Royal Free Hospital",
        "lat": 51.553844,
        "lon": -0.167001,
        "lines": [
            "1",
            "46",
            "c11"
        ],
        "modes": [
            "bus"
        ],
        "parent_id": "490G000732",
        "top_most_parent_id": "490G000732",
        "station_id": "490G000732"
    },
    {
        "id": "490012280N",
        "stop_letter": "X",
        "name": "South End Green",
        "lat": 51.55439,
        "lon": -0.165709,
        "lines": [
            "1"
        ],
        "modes": [
            "bus"
        ],
        "parent_id": "490G000751",
        "top_most_parent_id": "490G000751",
        "station_id": "490G000751"
    },
    {
        "id": "490008743N",
        "stop_letter": null,
        "name": "King Edward Street / St Pauls Station",
        "lat": 51.516552,
        "lon": -0.098638,
        "lines": [
            "100"
        ],
        "modes": [
            "bus"
        ],
        "parent_id": "490G00019929",
        "top_most_parent_id": "490G00019929",
        "station_id": "490G00019929"
    },
    {
        "id": "49008743N1",
        "stop_letter": "SV",
        "name": "Little Britain",
        "lat": 51.517613,
        "lon": -0.098075,
        "lines": [
            "100",
            "133",
            "25",
            "4",
            "56",
            "8",
            "n25",
            "n551",
            "n8"
        ],
        "modes": [
            "bus"
        ],
        "parent_id": "490G00008743",
        "top_most_parent_id": "490G00008743",
        "station_id": "490G00008743"
    },
    {
        "id": "490010130N",
        "stop_letter": "BC",
        "name": "Aldersgate Street",
        "lat": 51.518651,
        "lon": -0.097196,
        "lines": [
            "100",
            "4",
            "56",
            "n551"
        ],
        "modes": [
            "bus"
        ],
        "parent_id": "490G00019953",
        "top_most_parent_id": "490G00019953",
        "station_id": "490G00019953"
    },
    {
        "id": "490003818E",
        "stop_letter": "BN",
        "name": "Beech Street",
        "lat": 51.520593,
        "lon": -0.094434,
        "lines": [
            "100",
            "153",
            "n551"
        ],
        "modes": [
            "bus"
        ],
        "parent_id": "490G00003818",
        "top_most_parent_id": "490G00003818",
        "station_id": "490G00003818"
    },
    {
        "id": "490003831E",
        "stop_letter": "R",
        "name": "Finsbury Street",
        "lat": 51.520648,
        "lon": -0.088377,
        "lines": [
            "100",
            "153",
            "n551"
        ],
        "modes": [
            "bus"
        ],
        "parent_id": "490G00003831",
        "top_most_parent_id": "490G00003831",
        "station_id": "490G00003831"
    },
    {
        "id": "490015209K",
        "stop_letter": "K",
        "name": "Finsbury Square / Moorgate",
        "lat": 51.520091,
        "lon": -0.087334,
        "lines": [
            "100",
            "141",
            "153",
            "21",
            "43",
            "n551"
        ],
        "modes": [
            "bus"
        ],
        "parent_id": "490G000282",
        "top_most_parent_id": "490G000282",
        "station_id": "490G000282"
    },
    {
        "id": "490003172A",
        "stop_letter": "U",
        "name": "All Hallows Church",
        "lat": 51.516686,
        "lon": -0.084781,
        "lines": [
            "100",
            "153",
            "21",
            "43",
            "n551"
        ],
        "modes": [
            "bus"
        ],
        "parent_id": "490G00003172",
        "top_most_parent_id": "490G00003172",
        "station_id": "490G00003172"
    },
    {
        "id": "490004043P",
        "stop_letter": "P",
        "name": "Wormwood Street",
        "lat": 51.516203,
        "lon": -0.082178,
        "lines": [
            "100",
            "141",
            "21",
            "344",
            "43",
            "n133",
            "n551"
        ],
        "modes": [
            "bus"
        ],
        "parent_id": "490G00004043",
        "top_most_parent_id": "490G00004043",
        "station_id": "490G00004043"
    },
    {
        "id": "490000003B",
        "stop_letter": "B",
        "name": "St Botolph Street",
        "lat": 51.514955,
        "lon": -0.07514,
        "lines": [
            "100",
            "135",
            "205",
            "42",
            "78",
            "n205",
            "n551"
        ],
        "modes": [
            "bus"
        ],
        "parent_id": "490G00019038",
        "top_most_parent_id": "490G00019038",
        "station_id": "490G00019038"
    },
    {
        "id": "490000003R",
        "stop_letter": "R",
        "name": "Aldgate Station",
        "lat": 51.514079,
        "lon": -0.074932,
        "lines": [
            "100",
            "115",
            "15",
            "242",
            "25",
            "254",
            "343",
            "42",
            "78",
            "n15",
            "n25",
            "n253",
            "n550",
            "n551"
        ],
        "modes": [
            "bus"
        ],
        "parent_id": "490G00003N",
        "top_most_parent_id": "940GZZLUALD",
        "station_id": "490G00003N"
    },
    {
        "id": "490005818K",
        "stop_letter": "H",
        "name": "Minories",
        "lat": 51.51275,
        "lon": -0.075564,
        "lines": [
            "100",
            "15",
            "343",
            "42",
            "78",
            "n15",
            "n551"
        ],
        "modes": [
            "bus"
        ],
        "parent_id": "490G000477",
        "top_most_parent_id": "490G000477",
        "station_id": "490G000477"
    },
    {
        "id": "490015074Z",
        "stop_letter": "TE",
        "name": "Tower Hill / Tower Gateway Station",
        "lat": 51.509822,
        "lon": -0.073065,
        "lines": [
            "100",
            "343",
            "42",
            "78",
            "n551"
        ],
        "modes": [
            "bus"
        ],
        "parent_id": "490G000857",
        "top_most_parent_id": "490G000857",
        "station_id": "490G000857"
    },
    {
        "id": "490014944E",
        "stop_letter": "TS",
        "name": "St Katharine Docks",
        "lat": 51.508441,
        "lon": -0.071682,
        "lines": [
            "100",
            "n551"
        ],
        "modes": [
            "bus"
        ],
        "parent_id": "490G00014944",
        "top_most_parent_id": "490G00014944",
        "station_id": "490G00014944"
    },
    {
        "id": "490014016S",
        "stop_letter": "->S",
        "name": "The Highway",
        "lat": 51.508612,
        "lon": -0.067294,
        "lines": [
            "100"
        ],
        "modes": [
            "bus"
        ],
        "parent_id": "490G00014016",
        "top_most_parent_id": "490G00014016",
        "station_id": "490G00014016"
    },
    {
        "id": "490010178S",
        "stop_letter": "O",
        "name": "Nesham Street",
        "lat": 51.506899,
        "lon": -0.066487,
        "lines": [
            "100"
        ],
        "modes": [
            "bus"
        ],
        "parent_id": "490G00010178",
        "top_most_parent_id": "490G00010178",
        "station_id": "490G00010178"
    },
    {
        "id": "490008089E",
        "stop_letter": "A",
        "name": "Hermitage Wall",
        "lat": 51.505219,
        "lon": -0.064973,
        "lines": [
            "100"
        ],
        "modes": [
            "bus"
        ],
        "parent_id": "490G00008089",
        "top_most_parent_id": "490G00008089",
        "station_id": "490G00008089"
    },
    {
        "id": "490014210E",
        "stop_letter": "B",
        "name": "Sampson Street",
        "lat": 51.503912,
        "lon": -0.06366,
        "lines": [
            "100"
        ],
        "modes": [
            "bus"
        ],
        "parent_id": "490G00014210",
        "top_most_parent_id": "490G00014210",
        "station_id": "490G00014210"
    },
    {
        "id": "490006246E",
        "stop_letter": "C",
        "name": "Dundee Street",
        "lat": 51.503367,
        "lon": -0.060614,
        "lines": [
            "100"
        ],
        "modes": [
            "bus"
        ],
        "parent_id": "490G00006246",
        "top_most_parent_id": "490G00006246",
        "station_id": "490G00006246"
    },
    {
        "id": "490014208E",
        "stop_letter": "D",
        "name": "Wapping Station",
        "lat": 51.504058,
        "lon": -0.056723,
        "lines": [
            "100"
        ],
        "modes": [
            "bus"
        ],
        "parent_id": "490G00251W",
        "top_most_parent_id": "910GWAPPING",
        "station_id": "490G00251W"
    },
    {
        "id": "490014209N",
        "stop_letter": "H",
        "name": "Wapping Health Centre",
        "lat": 51.505808,
        "lon": -0.05868,
        "lines": [
            "100",
            "d3"
        ],
        "modes": [
            "bus"
        ],
        "parent_id": "490G00014209",
        "top_most_parent_id": "490G00014209",
        "station_id": "490G00014209"
    },
    {
        "id": "490013687K",
        "stop_letter": "K",
        "name": "Tobacco Dock",
        "lat": 51.509336,
        "lon": -0.058862,
        "lines": [
            "100",
            "d3"
        ],
        "modes": [
            "bus"
        ],
        "parent_id": "490G000801",
        "top_most_parent_id": "490G000801",
        "station_id": "490G000801"
    },
    {
        "id": "490012457E",
        "stop_letter": null,
        "name": "St Paul's Church",
        "lat": 51.509799,
        "lon": -0.053178,
        "lines": [
            "100",
            "n551"
        ],
        "modes": [
            "bus"
        ],
        "parent_id": "490G00012457",
        "top_most_parent_id": "490G00012457",
        "station_id": "490G00012457"
    },
    {
        "id": "490007207N",
        "stop_letter": null,
        "name": "Glamis Place",
        "lat": 51.510214,
        "lon": -0.050509,
        "lines": [
            "100"
        ],
        "modes": [
            "bus"
        ],
        "parent_id": "490G00007207",
        "top_most_parent_id": "490G00007207",
        "station_id": "490G00007207"
    },
    {
        "id": "490008734W",
        "stop_letter": null,
        "name": "King David Lane",
        "lat": 51.510684,
        "lon": -0.052838,
        "lines": [
            "100"
        ],
        "modes": [
            "bus"
        ],
        "parent_id": "490G00008734",
        "top_most_parent_id": "490G00008734",
        "station_id": "490G00008734"
    },
    {
        "id": "490000202A",
        "stop_letter": "A",
        "name": "Shadwell Station",
        "lat": 51.510971,
        "lon": -0.055535,
        "lines": [
            "100",
            "d3"
        ],
        "modes": [
            "bus"
        ],
        "parent_id": "490G00202A",
        "top_most_parent_id": "HUBSDE",
        "station_id": "490G00202A"
    },
    {
        "id": "490012020A",
        "stop_letter": null,
        "name": "St George's Town Hall / Shadwell Stn",
        "lat": 51.511039,
        "lon": -0.058559,
        "lines": [
            "100"
        ],
        "modes": [
            "bus"
        ],
        "parent_id": "490G000740",
        "top_most_parent_id": "490G000740",
        "station_id": "490G000740"
    },
    {
        "id": "490012020B",
        "stop_letter": "B",
        "name": "St George's Town Hall / Shadwell Stn",
        "lat": 51.511028,
        "lon": -0.058948,
        "lines": [
            "100",
            "d3"
        ],
        "modes": [
            "bus"
        ],
        "parent_id": "490G000740",
        "top_most_parent_id": "490G000740",
        "station_id": "490G000740"
    },
    {
        "id": "490013687J",
        "stop_letter": "J",
        "name": "Tobacco Dock",
        "lat": 51.50891,
        "lon": -0.058664,
        "lines": [
            "100",
            "d3"
        ],
        "modes": [
            "bus"
        ],
        "parent_id": "490G000801",
        "top_most_parent_id": "490G000801",
        "station_id": "490G000801"
    },
    {
        "id": "490014209S",
        "stop_letter": "L",
        "name": "Wapping Health Centre",
        "lat": 51.506246,
        "lon": -0.058503,
        "lines": [
            "100",
            "d3"
        ],
        "modes": [
            "bus"
        ],
        "parent_id": "490G00014209",
        "top_most_parent_id": "490G00014209",
        "station_id": "490G00014209"
    },
    {
        "id": "490011250E",
        "stop_letter": "M",
        "name": "Clegg Street",
        "lat": 51.505484,
        "lon": -0.057051,
        "lines": [
            "100"
        ],
        "modes": [
            "bus"
        ],
        "parent_id": "490G000714",
        "top_most_parent_id": "490G000714",
        "station_id": "490G000714"
    },
    {
        "id": "490003335E",
        "stop_letter": "N",
        "name": "Garnet Street",
        "lat": 51.506479,
        "lon": -0.05577,
        "lines": [
            "100"
        ],
        "modes": [
            "bus"
        ],
        "parent_id": "490G00003335",
        "top_most_parent_id": "490G00003335",
        "station_id": "490G00003335"
    },
    {
        "id": "490014211S",
        "stop_letter": "P",
        "name": "Wapping Wall",
        "lat": 51.505394,
        "lon": -0.054303,
        "lines": [
            "100",
            "d3"
        ],
        "modes": [
            "bus"
        ],
        "parent_id": "490G00014211",
        "top_most_parent_id": "490G00014211",
        "station_id": "490G00014211"
    },
    {
        "id": "490000251W",
        "stop_letter": "R",
        "name": "Wapping Station",
        "lat": 51.504565,
        "lon": -0.05588,
        "lines": [
            "100",
            "d3"
        ],
        "modes": [
            "bus"
        ],
        "parent_id": "490G00251W",
        "top_most_parent_id": "910GWAPPING",
        "station_id": "490G00251W"
    },
    {
        "id": "490006246W",
        "stop_letter": "S",
        "name": "Dundee Street",
        "lat": 51.503245,
        "lon": -0.060864,
        "lines": [
            "100"
        ],
        "modes": [
            "bus"
        ],
        "parent_id": "490G00006246",
        "top_most_parent_id": "490G00006246",
        "station_id": "490G00006246"
    },
    {
        "id": "490014210W",
        "stop_letter": "T",
        "name": "Sampson Street",
        "lat": 51.503662,
        "lon": -0.063267,
        "lines": [
            "100"
        ],
        "modes": [
            "bus"
        ],
        "parent_id": "490G00014210",
        "top_most_parent_id": "490G00014210",
        "station_id": "490G00014210"
    },
    {
        "id": "490008089W",
        "stop_letter": "U",
        "name": "Hermitage Wall",
        "lat": 51.504935,
        "lon": -0.064654,
        "lines": [
            "100"
        ],
        "modes": [
            "bus"
        ],
        "parent_id": "490G00008089",
        "top_most_parent_id": "490G00008089",
        "station_id": "490G00008089"
    },
    {
        "id": "490012021N",
        "stop_letter": null,
        "name": "Stockholm Way",
        "lat": 51.506011,
        "lon": -0.066626,
        "lines": [
            "100"
        ],
        "modes": [
            "bus"
        ],
        "parent_id": "490G00012021",
        "top_most_parent_id": "490G00012021",
        "station_id": "490G00012021"
    },
    {
        "id": "490014016N",
        "stop_letter": "->N",
        "name": "The Highway",
        "lat": 51.507658,
        "lon": -0.066729,
        "lines": [
            "100"
        ],
        "modes": [
            "bus"
        ],
        "parent_id": "490G00014016",
        "top_most_parent_id": "490G00014016",
        "station_id": "490G00014016"
    },
    {
        "id": "490014944W",
        "stop_letter": "TN",
        "name": "St Katharine Docks",
        "lat": 51.508326,
        "lon": -0.071788,
        "lines": [
            "100",
            "108",
            "n551"
        ],
        "modes": [
            "bus"
        ],
        "parent_id": "490G00014944",
        "top_most_parent_id": "490G00014944",
        "station_id": "490G00014944"
    },
    {
        "id": "490002076RV",
        "stop_letter": "TC",
        "name": "Tower Gateway Station",
        "lat": 51.510792,
        "lon": -0.075214,
        "lines": [
            "100",
            "42",
            "78",
            "n551"
        ],
        "modes": [
            "bus"
        ],
        "parent_id": "490G02076RV",
        "top_most_parent_id": "HUBTOG",
        "station_id": "490G02076RV"
    },
    {
        "id": "490009606S",
        "stop_letter": "S",
        "name": "Mansell Street",
        "lat": 51.51283,
        "lon": -0.073327,
        "lines": [
            "100",
            "15",
            "42",
            "78",
            "n15"
        ],
        "modes": [
            "bus"
        ],
        "parent_id": "490G000654",
        "top_most_parent_id": "490G000654",
        "station_id": "490G000654"
    },
    {
        "id": "490006229ZY",
        "stop_letter": "A",
        "name": "Duke's Place",
        "lat": 51.514571,
        "lon": -0.078629,
        "lines": [
            "100",
            "135",
            "205",
            "42",
            "78",
            "n205",
            "n551"
        ],
        "modes": [
            "bus"
        ],
        "parent_id": "490G000492",
        "top_most_parent_id": "490G000492",
        "station_id": "490G000492"
    },
    {
        "id": "490004043N",
        "stop_letter": "N",
        "name": "Bishopsgate",
        "lat": 51.515916,
        "lon": -0.081138,
        "lines": [
            "100",
            "n551"
        ],
        "modes": [
            "bus"
        ],
        "parent_id": "490G00019063",
        "top_most_parent_id": "490G00019063",
        "station_id": "490G00019063"
    },
    {
        "id": "490004043Q",
        "stop_letter": "Q",
        "name": "Wormwood Street",
        "lat": 51.516178,
        "lon": -0.082295,
        "lines": [
            "100",
            "344",
            "n133"
        ],
        "modes": [
            "bus"
        ],
        "parent_id": "490G00004043",
        "top_most_parent_id": "490G00004043",
        "station_id": "490G00004043"
    },
    {
        "id": "490000149B",
        "stop_letter": "B",
        "name": "Moorgate Station",
        "lat": 51.518621,
        "lon": -0.088174,
        "lines": [
            "100",
            "141",
            "153",
            "43"
        ],
        "modes": [
            "bus"
        ],
        "parent_id": "490G00149L",
        "top_most_parent_id": "HUBZMG",
        "station_id": "490G00149L"
    },
    {
        "id": "490003831W",
        "stop_letter": "S",
        "name": "Finsbury Street",
        "lat": 51.520687,
        "lon": -0.089125,
        "lines": [
            "100",
            "153"
        ],
        "modes": [
            "bus"
        ],
        "parent_id": "490G00003831",
        "top_most_parent_id": "490G00003831",
        "station_id": "490G00003831"
    },
    {
        "id": "490003824W",
        "stop_letter": "BM",
        "name": "Silk Street",
        "lat": 51.520946,
        "lon": -0.091796,
        "lines": [
            "100",
            "153"
        ],
        "modes": [
            "bus"
        ],
        "parent_id": "490G00003824",
        "top_most_parent_id": "490G00003824",
        "station_id": "490G00003824"
    },
    {
        "id": "490010130S",
        "stop_letter": "BD",
        "name": "London Wall",
        "lat": 51.518312,
        "lon": -0.096792,
        "lines": [
            "100",
            "4",
            "56"
        ],
        "modes": [
            "bus"
        ],
        "parent_id": "490G00010130",
        "top_most_parent_id": "490G00010130",
        "station_id": "490G00010130"
    },
    {
        "id": "490000225W",
        "stop_letter": "SW",
        "name": "St Paul's Station",
        "lat": 51.51544,
        "lon": -0.097157,
        "lines": [
            "100",
            "133",
            "25",
            "4",
            "n25",
            "n8"
        ],
        "modes": [
            "bus"
        ],
        "parent_id": "490G00225S",
        "top_most_parent_id": "940GZZLUSPU",
        "station_id": "490G00225S"
    },
    {
        "id": "490014816E",
        "stop_letter": "E",
        "name": "Woodbine Place",
        "lat": 51.57704,
        "lon": 0.026821,
        "lines": [
            "101",
            "308",
            "w12"
        ],
        "modes": [
            "bus"
        ],
        "parent_id": "490G00014816",
        "top_most_parent_id": "490G00014816",
        "station_id": "490G00014816"
    },
    {
        "id": "490000250D",
        "stop_letter": "D",
        "name": "Wanstead High St / Wanstead Station",
        "lat": 51.576752,
        "lon": 0.027385,
        "lines": [
            "101",
            "308",
            "66",
            "n55",
            "w13",
            "w14"
        ],
        "modes": [
            "bus"
        ],
        "parent_id": "490G00014821",
        "top_most_parent_id": "490G00014821",
        "station_id": "490G00014821"
    },
    {
        "id": "490015125C",
        "stop_letter": "C",
        "name": "Wanstead Station  / George Green",
        "lat": 51.575082,
        "lon": 0.026705,
        "lines": [
            "101",
            "145",
            "308",
            "n55",
            "n8",
            "w13",
            "w14"
        ],
        "modes": [
            "bus"
        ],
        "parent_id": "490G00250A",
        "top_most_parent_id": "940GZZLUWSD",
        "station_id": "490G00250A"
    },
    {
        "id": "490006778S",
        "stop_letter": "T",
        "name": "Felstead Road",
        "lat": 51.572514,
        "lon": 0.023849,
        "lines": [
            "101",
            "145",
            "308",
            "n55",
            "n8"
        ],
        "modes": [
            "bus"
        ],
        "parent_id": "490G00006778",
        "top_most_parent_id": "490G00006778",
        "station_id": "490G00006778"
    },
    {
        "id": "490004653S",
        "stop_letter": "U",
        "name": "Bush Road",
        "lat": 51.570511,
        "lon": 0.023716,
        "lines": [
            "101",
            "145",
            "308",
            "n55",
            "n8"
        ],
        "modes": [
            "bus"
        ],
        "parent_id": "490G00004653",
        "top_most_parent_id": "490G00004653",
        "station_id": "490G00004653"
    },
    {
        "id": "490004087S",
        "stop_letter": "A",
        "name": "Blake Hall Crescent",
        "lat": 51.565865,
        "lon": 0.025097,
        "lines": [
            "101",
            "308",
            "w19"
        ],
        "modes": [
            "bus"
        ],
        "parent_id": "490G00004087",
        "top_most_parent_id": "490G00004087",
        "station_id": "490G00004087"
    },
    {
        "id": "490011372S",
        "stop_letter": "B",
        "name": "Queenswood Gardens",
        "lat": 51.564091,
        "lon": 0.025754,
        "lines": [
            "101",
            "w19"
        ],
        "modes": [
            "bus"
        ],
        "parent_id": "490G00011372",
        "top_most_parent_id": "490G00011372",
        "station_id": "490G00011372"
    },
    {
        "id": "490010812E",
        "stop_letter": "C",
        "name": "Park Road",
        "lat": 51.563031,
        "lon": 0.031954,
        "lines": [
            "101",
            "w19"
        ],
        "modes": [
            "bus"
        ],
        "parent_id": "490G00010812",
        "top_most_parent_id": "490G00010812",
        "station_id": "490G00010812"
    },
    {
        "id": "490008095S",
        "stop_letter": "D",
        "name": "Herongate Road",
        "lat": 51.562005,
        "lon": 0.035617,
        "lines": [
            "101",
            "w19"
        ],
        "modes": [
            "bus"
        ],
        "parent_id": "490G00008095",
        "top_most_parent_id": "490G00008095",
        "station_id": "490G00008095"
    },
    {
        "id": "490006566S",
        "stop_letter": "E",
        "name": "Empress Avenue",
        "lat": 51.561018,
        "lon": 0.037564,
        "lines": [
            "101",
            "w19"
        ],
        "modes": [
            "bus"
        ],
        "parent_id": "490G00006566",
        "top_most_parent_id": "490G00006566",
        "station_id": "490G00006566"
    },
    {
        "id": "490009816S",
        "stop_letter": "F",
        "name": "Merlin Road",
        "lat": 51.56018,
        "lon": 0.039229,
        "lines": [
            "101",
            "w19"
        ],
        "modes": [
            "bus"
        ],
        "parent_id": "490G00009816",
        "top_most_parent_id": "490G00009816",
        "station_id": "490G00009816"
    },
    {
        "id": "490014205S",
        "stop_letter": "G",
        "name": "City of London Cemetery",
        "lat": 51.558665,
        "lon": 0.04258,
        "lines": [
            "101",
            "w19"
        ],
        "modes": [
            "bus"
        ],
        "parent_id": "490G00005322",
        "top_most_parent_id": "490G00005322",
        "station_id": "490G00005322"
    },
    {
        "id": "490004769Z",
        "stop_letter": null,
        "name": "Capel Road",
        "lat": 51.554513,
        "lon": 0.046505,
        "lines": [
            "101",
            "w19"
        ],
        "modes": [
            "bus"
        ],
        "parent_id": "490G00004769",
        "top_most_parent_id": "490G00004769",
        "station_id": "490G00004769"
    },
    {
        "id": "490001189S",
        "stop_letter": "B",
        "name": "Manor Park Station",
        "lat": 51.552829,
        "lon": 0.046646,
        "lines": [
            "101",
            "304",
            "474",
            "w19"
        ],
        "modes": [
            "bus"
        ],
        "parent_id": "910GMANRPK",
        "top_most_parent_id": "910GMANRPK",
        "station_id": "910GMANRPK"
    },
    {
        "id": "490011661S",
        "stop_letter": "J",
        "name": "Romford Road",
        "lat": 51.551398,
        "lon": 0.047274,
        "lines": [
            "101",
            "304",
            "474",
            "w19"
        ],
        "modes": [
            "bus"
        ],
        "parent_id": "490G00011661",
        "top_most_parent_id": "490G00011661",
        "station_id": "490G00011661"
    },
    {
        "id": "490005694D",
        "stop_letter": "D",
        "name": "Cranbourne Road",
        "lat": 51.54968,
        "lon": 0.048279,
        "lines": [
            "101",
            "304",
            "474"
        ],
        "modes": [
            "bus"
        ],
        "parent_id": "490G000469",
        "top_most_parent_id": "490G000469",
        "station_id": "490G000469"
    },
    {
        "id": "490003921S",
        "stop_letter": "A",
        "name": "Berkeley Road",
        "lat": 51.546487,
        "lon": 0.048842,
        "lines": [
            "101",
            "304",
            "474"
        ],
        "modes": [
            "bus"
        ],
        "parent_id": "490G00003921",
        "top_most_parent_id": "490G00003921",
        "station_id": "490G00003921"
    },
    {
        "id": "490011801S1",
        "stop_letter": "B",
        "name": "Ruskin Avenue",
        "lat": 51.545371,
        "lon": 0.049441,
        "lines": [
            "101",
            "304",
            "474"
        ],
        "modes": [
            "bus"
        ],
        "parent_id": "490G00011801",
        "top_most_parent_id": "490G00011801",
        "station_id": "490G00011801"
    },
    {
        "id": "490012058S1",
        "stop_letter": "C",
        "name": "Shelley Avenue",
        "lat": 51.543447,
        "lon": 0.049931,
        "lines": [
            "101",
            "304",
            "474"
        ],
        "modes": [
            "bus"
        ],
        "parent_id": "490G00012058",
        "top_most_parent_id": "490G00012058",
        "station_id": "490G00012058"
    },
    {
        "id": "490007200F",
        "stop_letter": "D",
        "name": "Gladstone Avenue",
        "lat": 51.541547,
        "lon": 0.050567,
        "lines": [
            "101",
            "304",
            "474"
        ],
        "modes": [
            "bus"
        ],
        "parent_id": "490G00007200",
        "top_most_parent_id": "490G00007200",
        "station_id": "490G00007200"
    },
    {
        "id": "490000068A",
        "stop_letter": "A",
        "name": "East Ham Station",
        "lat": 51.540029,
        "lon": 0.050975,
        "lines": [
            "101",
            "147",
            "238",
            "300",
            "304",
            "325",
            "376",
            "474"
        ],
        "modes": [
            "bus"
        ],
        "parent_id": "490G00068A",
        "top_most_parent_id": "940GZZLUEHM",
        "station_id": "490G00068A"
    },
    {
        "id": "490003888N",
        "stop_letter": "N",
        "name": "Bendish Road",
        "lat": 51.537543,
        "lon": 0.051714,
        "lines": [
            "101",
            "147",
            "238",
            "300",
            "304",
            "325",
            "376",
            "474"
        ],
        "modes": [
            "bus"
        ],
        "parent_id": "490G00003888",
        "top_most_parent_id": "490G00003888",
        "station_id": "490G00003888"
    },
    {
        "id": "490011001M",
        "stop_letter": "M",
        "name": "Ron Leighton Way",
        "lat": 51.535535,
        "lon": 0.051364,
        "lines": [
            "101",
            "147",
            "304",
            "376",
            "474"
        ],
        "modes": [
            "bus"
        ],
        "parent_id": "490G00011001",
        "top_most_parent_id": "490G00011001",
        "station_id": "490G00011001"
    },
    {
        "id": "490006360R",
        "stop_letter": "R",
        "name": "High Street North",
        "lat": 51.532924,
        "lon": 0.053092,
        "lines": [
            "101",
            "115",
            "304",
            "376",
            "474",
            "58"
        ],
        "modes": [
            "bus"
        ],
        "parent_id": "490G00006360",
        "top_most_parent_id": "490G00006360",
        "station_id": "490G00006360"
    },
    {
        "id": "490010218V",
        "stop_letter": "V",
        "name": "Newham Town Hall",
        "lat": 51.531878,
        "lon": 0.055294,
        "lines": [
            "101",
            "115",
            "304",
            "376",
            "474",
            "58"
        ],
        "modes": [
            "bus"
        ],
        "parent_id": "490G00010218",
        "top_most_parent_id": "490G00010218",
        "station_id": "490G00010218"
    },
    {
        "id": "490009662S",
        "stop_letter": "N",
        "name": "Market Street",
        "lat": 51.530591,
        "lon": 0.055899,
        "lines": [
            "101",
            "115",
            "304",
            "474",
            "58"
        ],
        "modes": [
            "bus"
        ],
        "parent_id": "490G00009662",
        "top_most_parent_id": "490G00009662",
        "station_id": "490G00009662"
    },
    {
        "id": "490006358S1",
        "stop_letter": "L",
        "name": "East Ham / Central Park",
        "lat": 51.52739,
        "lon": 0.056361,
        "lines": [
            "101",
            "304",
            "474"
        ],
        "modes": [
            "bus"
        ],
        "parent_id": "490G00006358",
        "top_most_parent_id": "490G00006358",
        "station_id": "490G00006358"
    },
    {
        "id": "490014040S",
        "stop_letter": "BK",
        "name": "Vicarage Lane",
        "lat": 51.525174,
        "lon": 0.057083,
        "lines": [
            "101",
            "300",
            "304",
            "474"
        ],
        "modes": [
            "bus"
        ],
        "parent_id": "490G00014049",
        "top_most_parent_id": "490G00014049",
        "station_id": "490G00014049"
    },
    {
        "id": "490006359S",
        "stop_letter": "BL",
        "name": "East Ham Fire Station",
        "lat": 51.523646,
        "lon": 0.057547,
        "lines": [
            "101",
            "300",
            "304",
            "474"
        ],
        "modes": [
            "bus"
        ],
        "parent_id": "490G00006359",
        "top_most_parent_id": "490G00006359",
        "station_id": "490G00006359"
    },
    {
        "id": "490009348S",
        "stop_letter": "BM",
        "name": "Lonsdale Avenue",
        "lat": 51.521238,
        "lon": 0.058491,
        "lines": [
            "101",
            "300",
            "474"
        ],
        "modes": [
            "bus"
        ],
        "parent_id": "490G00009348",
        "top_most_parent_id": "490G00009348",
        "station_id": "490G00009348"
    },
    {
        "id": "490003747S",
        "stop_letter": "BN",
        "name": "Albatross Close",
        "lat": 51.518442,
        "lon": 0.05995,
        "lines": [
            "101",
            "104",
            "173",
            "300",
            "474",
            "673"
        ],
        "modes": [
            "bus"
        ],
        "parent_id": "490G00003747",
        "top_most_parent_id": "490G00003747",
        "station_id": "490G00003747"
    },
    {
        "id": "490013691E",
        "stop_letter": "E",
        "name": "Tollgate Road",
        "lat": 51.516482,
        "lon": 0.060424,
        "lines": [
            "101",
            "104",
            "173",
            "300",
            "474",
            "673"
        ],
        "modes": [
            "bus"
        ],
        "parent_id": "490G00013691",
        "top_most_parent_id": "490G00013691",
        "station_id": "490G00013691"
    },
    {
        "id": "490006317A",
        "stop_letter": "A",
        "name": "Beckton Bus Station",
        "lat": 51.514067,
        "lon": 0.059695,
        "lines": [
            "101",
            "104",
            "173",
            "366",
            "376",
            "673",
            "678"
        ],
        "modes": [
            "bus"
        ],
        "parent_id": "490G000496",
        "top_most_parent_id": "490G000496",
        "station_id": "490G000496"
    },
    {
        "id": "490006317D",
        "stop_letter": "D",
        "name": "Beckton Bus Station",
        "lat": 51.514431,
        "lon": 0.059986,
        "lines": [
            "101",
            "173",
            "300",
            "474"
        ],
        "modes": [
            "bus"
        ],
        "parent_id": "490G000496",
        "top_most_parent_id": "490G000496",
        "station_id": "490G000496"
    },
    {
        "id": "490013691F",
        "stop_letter": "F",
        "name": "Tollgate Road",
        "lat": 51.516829,
        "lon": 0.060123,
        "lines": [
            "101",
            "104",
            "173",
            "300",
            "474"
        ],
        "modes": [
            "bus"
        ],
        "parent_id": "490G00013691",
        "top_most_parent_id": "490G00013691",
        "station_id": "490G00013691"
    },
    {
        "id": "490003747N",
        "stop_letter": "BE",
        "name": "Albatross Close",
        "lat": 51.519502,
        "lon": 0.059508,
        "lines": [
            "101",
            "104",
            "173",
            "300",
            "474"
        ],
        "modes": [
            "bus"
        ],
        "parent_id": "490G00003747",
        "top_most_parent_id": "490G00003747",
        "station_id": "490G00003747"
    },
    {
        "id": "490009348N",
        "stop_letter": "BH",
        "name": "Lonsdale Avenue",
        "lat": 51.521595,
        "lon": 0.058103,
        "lines": [
            "101",
            "104",
            "300",
            "304",
            "474"
        ],
        "modes": [
            "bus"
        ],
        "parent_id": "490G00009348",
        "top_most_parent_id": "490G00009348",
        "station_id": "490G00009348"
    },
    {
        "id": "490010045N",
        "stop_letter": "BJ",
        "name": "Mortimer Road",
        "lat": 51.524598,
        "lon": 0.057114,
        "lines": [
            "101",
            "300",
            "304",
            "474"
        ],
        "modes": [
            "bus"
        ],
        "parent_id": "490G00010045",
        "top_most_parent_id": "490G00010045",
        "station_id": "490G00010045"
    },
    {
        "id": "490009682N",
        "stop_letter": "H",
        "name": "Marlow Road",
        "lat": 51.526409,
        "lon": 0.056403,
        "lines": [
            "101",
            "304",
            "474"
        ],
        "modes": [
            "bus"
        ],
        "parent_id": "490G00009682",
        "top_most_parent_id": "490G00009682",
        "station_id": "490G00009682"
    },
    {
        "id": "490006358N",
        "stop_letter": "G",
        "name": "East Ham / Central Park",
        "lat": 51.52878,
        "lon": 0.056077,
        "lines": [
            "101",
            "115",
            "304",
            "474",
            "58"
        ],
        "modes": [
            "bus"
        ],
        "parent_id": "490G00006358",
        "top_most_parent_id": "490G00006358",
        "station_id": "490G00006358"
    },
    {
        "id": "490013665N",
        "stop_letter": "F",
        "name": "Tilbury Road",
        "lat": 51.529954,
        "lon": 0.05577,
        "lines": [
            "101",
            "115",
            "304",
            "474",
            "58"
        ],
        "modes": [
            "bus"
        ],
        "parent_id": "490G00013665",
        "top_most_parent_id": "490G00013665",
        "station_id": "490G00013665"
    },
    {
        "id": "490010218U",
        "stop_letter": "U",
        "name": "Newham Town Hall",
        "lat": 51.531752,
        "lon": 0.055303,
        "lines": [
            "101",
            "304",
            "474"
        ],
        "modes": [
            "bus"
        ],
        "parent_id": "490G00010218",
        "top_most_parent_id": "490G00010218",
        "station_id": "490G00010218"
    },
    {
        "id": "490013645L",
        "stop_letter": "L",
        "name": "Kempton Road",
        "lat": 51.534742,
        "lon": 0.053001,
        "lines": [
            "101",
            "325",
            "376"
        ],
        "modes": [
            "bus"
        ],
        "parent_id": "490G00013645",
        "top_most_parent_id": "490G00013645",
        "station_id": "490G00013645"
    },
    {
        "id": "490004881J",
        "stop_letter": "J",
        "name": "Caledon Road",
        "lat": 51.535893,
        "lon": 0.052461,
        "lines": [
            "101",
            "325",
            "376"
        ],
        "modes": [
            "bus"
        ],
        "parent_id": "490G00004881",
        "top_most_parent_id": "490G00004881",
        "station_id": "490G00004881"
    },
    {
        "id": "490003888D",
        "stop_letter": "D",
        "name": "Bendish Road",
        "lat": 51.538107,
        "lon": 0.051379,
        "lines": [
            "101",
            "147",
            "238",
            "300",
            "304",
            "325",
            "376",
            "474"
        ],
        "modes": [
            "bus"
        ],
        "parent_id": "490G00003888",
        "top_most_parent_id": "490G00003888",
        "station_id": "490G00003888"
    },
    {
        "id": "490000068B",
        "stop_letter": "B",
        "name": "East Ham Station",
        "lat": 51.53938,
        "lon": 0.051046,
        "lines": [
            "101",
            "147",
            "238",
            "300",
            "304",
            "325",
            "376",
            "474"
        ],
        "modes": [
            "bus"
        ],
        "parent_id": "490G00068A",
        "top_most_parent_id": "940GZZLUEHM",
        "station_id": "490G00068A"
    },
    {
        "id": "490007200Y",
        "stop_letter": "U",
        "name": "Gladstone Avenue",
        "lat": 51.540801,
        "lon": 0.050548,
        "lines": [
            "101",
            "304",
            "474"
        ],
        "modes": [
            "bus"
        ],
        "parent_id": "490G00007200",
        "top_most_parent_id": "490G00007200",
        "station_id": "490G00007200"
    },
    {
        "id": "490012058N2",
        "stop_letter": "V",
        "name": "Shelley Avenue",
        "lat": 51.542925,
        "lon": 0.049908,
        "lines": [
            "101",
            "304",
            "474"
        ],
        "modes": [
            "bus"
        ],
        "parent_id": "490G00012058",
        "top_most_parent_id": "490G00012058",
        "station_id": "490G00012058"
    },
    {
        "id": "490011801N",
        "stop_letter": "W",
        "name": "Ruskin Avenue",
        "lat": 51.545011,
        "lon": 0.049425,
        "lines": [
            "101",
            "304",
            "474"
        ],
        "modes": [
            "bus"
        ],
        "parent_id": "490G00011801",
        "top_most_parent_id": "490G00011801",
        "station_id": "490G00011801"
    },
    {
        "id": "490003921N",
        "stop_letter": "X",
        "name": "Berkeley Road",
        "lat": 51.546932,
        "lon": 0.048631,
        "lines": [
            "101",
            "304",
            "474"
        ],
        "modes": [
            "bus"
        ],
        "parent_id": "490G00003921",
        "top_most_parent_id": "490G00003921",
        "station_id": "490G00003921"
    },
    {
        "id": "490005694C",
        "stop_letter": "C",
        "name": "Romford Road",
        "lat": 51.550059,
        "lon": 0.047719,
        "lines": [
            "101",
            "304",
            "474"
        ],
        "modes": [
            "bus"
        ],
        "parent_id": "490G00011661",
        "top_most_parent_id": "490G00011661",
        "station_id": "490G00011661"
    },
    {
        "id": "490001189N",
        "stop_letter": "A",
        "name": "Manor Park Station",
        "lat": 51.552082,
        "lon": 0.046713,
        "lines": [
            "101",
            "304",
            "474",
            "w19"
        ],
        "modes": [
            "bus"
        ],
        "parent_id": "910GMANRPK",
        "top_most_parent_id": "910GMANRPK",
        "station_id": "910GMANRPK"
    },
    {
        "id": "490004769W",
        "stop_letter": null,
        "name": "Capel Road",
        "lat": 51.554264,
        "lon": 0.04635,
        "lines": [
            "101",
            "w19"
        ],
        "modes": [
            "bus"
        ],
        "parent_id": "490G00004769",
        "top_most_parent_id": "490G00004769",
        "station_id": "490G00004769"
    },
    {
        "id": "490005322N",
        "stop_letter": "J",
        "name": "City of London Cemetery",
        "lat": 51.556956,
        "lon": 0.044638,
        "lines": [
            "101",
            "w19"
        ],
        "modes": [
            "bus"
        ],
        "parent_id": "490G00005322",
        "top_most_parent_id": "490G00005322",
        "station_id": "490G00005322"
    },
    {
        "id": "490014205N",
        "stop_letter": "K",
        "name": "Wanstead Park Avenue",
        "lat": 51.558817,
        "lon": 0.041562,
        "lines": [
            "101",
            "w19"
        ],
        "modes": [
            "bus"
        ],
        "parent_id": "490G00014205",
        "top_most_parent_id": "490G00014205",
        "station_id": "490G00014205"
    },
    {
        "id": "490009816N",
        "stop_letter": "L",
        "name": "Merlin Road",
        "lat": 51.559622,
        "lon": 0.039737,
        "lines": [
            "101",
            "w19"
        ],
        "modes": [
            "bus"
        ],
        "parent_id": "490G00009816",
        "top_most_parent_id": "490G00009816",
        "station_id": "490G00009816"
    },
    {
        "id": "490006566N",
        "stop_letter": "M",
        "name": "Empress Avenue",
        "lat": 51.560489,
        "lon": 0.038002,
        "lines": [
            "101",
            "w19"
        ],
        "modes": [
            "bus"
        ],
        "parent_id": "490G00006566",
        "top_most_parent_id": "490G00006566",
        "station_id": "490G00006566"
    },
    {
        "id": "490006151N",
        "stop_letter": "N",
        "name": "Dover Road",
        "lat": 51.562007,
        "lon": 0.034968,
        "lines": [
            "101",
            "w19"
        ],
        "modes": [
            "bus"
        ],
        "parent_id": "490G00006151",
        "top_most_parent_id": "490G00006151",
        "station_id": "490G00006151"
    },
    {
        "id": "490010812W",
        "stop_letter": "P",
        "name": "Park Road",
        "lat": 51.562872,
        "lon": 0.032308,
        "lines": [
            "101",
            "w19"
        ],
        "modes": [
            "bus"
        ],
        "parent_id": "490G00010812",
        "top_most_parent_id": "490G00010812",
        "station_id": "490G00010812"
    },
    {
        "id": "490011372N",
        "stop_letter": "R",
        "name": "Queenswood Gardens",
        "lat": 51.563915,
        "lon": 0.025559,
        "lines": [
            "101",
            "w19"
        ],
        "modes": [
            "bus"
        ],
        "parent_id": "490G00011372",
        "top_most_parent_id": "490G00011372",
        "station_id": "490G00011372"
    },
    {
        "id": "490004087N",
        "stop_letter": "S",
        "name": "Blake Hall Crescent",
        "lat": 51.566629,
        "lon": 0.024597,
        "lines": [
            "101",
            "308",
            "w19"
        ],
        "modes": [
            "bus"
        ],
        "parent_id": "490G00004087",
        "top_most_parent_id": "490G00004087",
        "station_id": "490G00004087"
    },
    {
        "id": "490004653N",
        "stop_letter": "M",
        "name": "Bush Road",
        "lat": 51.570651,
        "lon": 0.02342,
        "lines": [
            "101",
            "308"
        ],
        "modes": [
            "bus"
        ],
        "parent_id": "490G00004653",
        "top_most_parent_id": "490G00004653",
        "station_id": "490G00004653"
    },
    {
        "id": "490004706N",
        "stop_letter": "L",
        "name": "Cambridge Park",
        "lat": 51.57305,
        "lon": 0.023512,
        "lines": [
            "101",
            "308"
        ],
        "modes": [
            "bus"
        ],
        "parent_id": "490G00004706",
        "top_most_parent_id": "490G00004706",
        "station_id": "490G00004706"
    },
    {
        "id": "490015125B",
        "stop_letter": "B",
        "name": "Wanstead Station",
        "lat": 51.575308,
        "lon": 0.027119,
        "lines": [
            "101",
            "145",
            "308",
            "n55",
            "n8",
            "w13",
            "w14"
        ],
        "modes": [
            "bus"
        ],
        "parent_id": "490G00250A",
        "top_most_parent_id": "940GZZLUWSD",
        "station_id": "490G00250A"
    },
    {
        "id": "490014816W",
        "stop_letter": "AP",
        "name": "Woodbine Place",
        "lat": 51.576784,
        "lon": 0.027055,
        "lines": [
            "101",
            "308",
            "w12"
        ],
        "modes": [
            "bus"
        ],
        "parent_id": "490G00014816",
        "top_most_parent_id": "490G00014816",
        "station_id": "490G00014816"
    }
]